{"result":"ok","msg":"操作成功","data":[{"name":"南京","districts":[{"places":[{"city":"南京","org_id":52,"admin_id":11,"latitude":32.240302,"serve_type":0,"name":"南京科技职业学院","id":659497,"area_id":659497,"region":"六合区","status":1,"longitude":118.755044}],"name":"六合区","status":1},{"places":[{"city":"南京","org_id":15,"admin_id":11,"latitude":32.109258,"serve_type":0,"name":"南京中医药大学","id":3446,"area_id":3446,"region":"栖霞区","status":1,"longitude":118.951291},{"city":"南京","org_id":30,"admin_id":11,"latitude":32.11451,"serve_type":0,"name":"南京邮电大学","id":3447,"area_id":3447,"region":"栖霞区","status":1,"longitude":118.937391},{"city":"南京","org_id":30,"admin_id":11,"latitude":32.132216,"serve_type":0,"name":"南理工紫金学院","id":3578,"area_id":3578,"region":"栖霞区","status":1,"longitude":118.940795},{"city":"南京","org_id":30,"admin_id":11,"latitude":32.111597,"serve_type":0,"name":"南京财经大学","id":659897,"area_id":659897,"region":"栖霞区","status":1,"longitude":118.929516},{"city":"南京","org_id":30,"admin_id":11,"latitude":32.134173,"serve_type":0,"name":"南京信息职业技术学院","id":659898,"area_id":659898,"region":"栖霞区","status":1,"longitude":118.94812},{"city":"南京","org_id":32,"admin_id":11,"latitude":32.107155,"serve_type":0,"name":"南京师范大学","id":659027,"area_id":659027,"region":"栖霞区","status":1,"longitude":118.916952}],"name":"栖霞区","status":1},{"places":[{"city":"南京","org_id":37,"admin_id":11,"latitude":31.928161,"serve_type":0,"name":"南京工程学院","id":3511,"area_id":3511,"region":"江宁区","status":1,"longitude":118.88653},{"city":"南京","org_id":49,"admin_id":11,"latitude":31.920729,"serve_type":0,"name":"河海大学","id":659368,"area_id":659368,"region":"江宁区","status":1,"longitude":118.794244},{"city":"南京","org_id":50,"admin_id":11,"latitude":31.936718,"serve_type":0,"name":"江苏经贸学院","id":3510,"area_id":3510,"region":"江宁区","status":1,"longitude":118.891526},{"city":"南京","org_id":50,"admin_id":11,"latitude":31.945864,"serve_type":0,"name":"南京医科大学","id":659496,"area_id":659496,"region":"江宁区","status":1,"longitude":118.89633},{"city":"南京","org_id":146,"admin_id":11,"latitude":31.923096,"serve_type":0,"name":"海事职业技术学院","id":660322,"area_id":660322,"region":"江宁区","status":1,"longitude":118.908234},{"city":"南京","org_id":146,"admin_id":11,"latitude":31.917557,"serve_type":0,"name":"南京交通职业技术学院","id":660323,"area_id":660323,"region":"江宁区","status":1,"longitude":118.916448},{"city":"南京","org_id":154,"admin_id":11,"latitude":31.911419,"serve_type":0,"name":"金陵科技学院","id":659033,"area_id":659033,"region":"江宁区","status":1,"longitude":118.906299},{"city":"南京","org_id":155,"admin_id":11,"latitude":31.90712,"serve_type":0,"name":"中国药科大学","id":659029,"area_id":659029,"region":"江宁区","status":1,"longitude":118.922915},{"city":"南京","org_id":155,"admin_id":11,"latitude":31.899242,"serve_type":0,"name":"南京晓庄学院","id":659032,"area_id":659032,"region":"江宁区","status":1,"longitude":118.908415},{"city":"南京","org_id":177,"admin_id":11,"latitude":31.893348,"serve_type":0,"name":"东南大学九龙湖校区","id":667649,"area_id":667649,"region":"江宁区","status":1,"longitude":118.826079}],"name":"江宁区","status":1},{"places":[{"city":"南京","org_id":13,"admin_id":11,"latitude":32.081261,"serve_type":0,"name":"南京工业大学","id":3444,"area_id":3444,"region":"浦口区","status":1,"longitude":118.648635},{"city":"南京","org_id":24,"admin_id":11,"latitude":32.183853,"serve_type":0,"name":"南京大学金陵学院","id":3708,"area_id":3708,"region":"浦口区","status":1,"longitude":118.712375},{"city":"南京","org_id":25,"admin_id":11,"latitude":32.161845,"serve_type":0,"name":"东大成贤学院","id":3616,"area_id":3616,"region":"浦口区","status":1,"longitude":118.710023},{"city":"南京","org_id":26,"admin_id":11,"latitude":32.081452,"serve_type":0,"name":"建康学院","id":3614,"area_id":3614,"region":"浦口区","status":1,"longitude":118.620371},{"city":"南京","org_id":27,"admin_id":11,"latitude":32.068226,"serve_type":0,"name":"南京审计学院","id":3541,"area_id":3541,"region":"浦口区","status":1,"longitude":118.615615},{"city":"南京","org_id":28,"admin_id":11,"latitude":32.138905,"serve_type":0,"name":"南京农业大学浦口校区","id":659026,"area_id":659026,"region":"浦口区","status":1,"longitude":118.707055},{"city":"南京","org_id":39,"admin_id":11,"latitude":32.210498,"serve_type":0,"name":"南京信息工程大学","id":3645,"area_id":3645,"region":"浦口区","status":1,"longitude":118.734345},{"city":"南京","org_id":145,"admin_id":11,"latitude":32.106528,"serve_type":0,"name":"南京铁道学院","id":660081,"area_id":660081,"region":"浦口区","status":1,"longitude":118.705678}],"name":"浦口区","status":1},{"places":[{"city":"南京","org_id":34,"admin_id":11,"latitude":32.083869,"serve_type":0,"name":"南京林业大学","id":659021,"area_id":659021,"region":"玄武区","status":1,"longitude":118.824782},{"city":"南京","org_id":35,"admin_id":11,"latitude":32.032779,"serve_type":0,"name":"南京理工大学","id":659028,"area_id":659028,"region":"玄武区","status":1,"longitude":118.863691},{"city":"南京","org_id":76,"admin_id":11,"latitude":32.039031,"serve_type":0,"name":"南京农业大学卫岗校区","id":659911,"area_id":659911,"region":"玄武区","status":1,"longitude":118.850143}],"name":"玄武区","status":1},{"places":[{"city":"南京","org_id":219,"admin_id":11,"latitude":31.98327,"serve_type":0,"name":"虚拟测试学校","id":672631,"area_id":672631,"region":"雨花区","status":1,"longitude":118.781038}],"name":"雨花区","status":1},{"places":[{"city":"南京","org_id":222,"admin_id":11,"latitude":31.98093,"serve_type":1,"name":"软件大道旗舰店","id":672638,"area_id":672638,"region":"雨花台区","status":1,"longitude":118.779266}],"name":"雨花台区","status":1},{"places":[{"city":"南京","org_id":147,"admin_id":11,"latitude":32.068402,"serve_type":0,"name":"南京艺术学院","id":660083,"area_id":660083,"region":"鼓楼区","status":1,"longitude":118.760219},{"city":"南京","org_id":147,"admin_id":11,"latitude":32.06496,"serve_type":0,"name":"第二师范学院","id":660324,"area_id":660324,"region":"鼓楼区","status":1,"longitude":118.76037}],"name":"鼓楼区","status":1}],"id":1},{"name":"南昌","districts":[{"places":[{"city":"南昌","org_id":162,"admin_id":158,"latitude":28.657027,"serve_type":0,"name":"南昌航空大学前湖校区","id":667677,"area_id":667677,"region":"红谷滩新区","status":1,"longitude":115.835044},{"city":"南昌","org_id":163,"admin_id":158,"latitude":28.661274,"serve_type":0,"name":"南昌大学前湖校区","id":667678,"area_id":667678,"region":"红谷滩新区","status":1,"longitude":115.809834}],"name":"红谷滩新区","status":1},{"places":[{"city":"南昌","org_id":164,"admin_id":158,"latitude":28.742088,"serve_type":0,"name":"江西科技师范大学枫林校区","id":667679,"area_id":667679,"region":"经开区","status":1,"longitude":115.844217},{"city":"南昌","org_id":165,"admin_id":158,"latitude":28.734361,"serve_type":0,"name":"江西财经大学麦庐园校区","id":667680,"area_id":667680,"region":"经开区","status":1,"longitude":115.823206},{"city":"南昌","org_id":166,"admin_id":158,"latitude":28.728224,"serve_type":0,"name":"南昌师范学院","id":667681,"area_id":667681,"region":"经开区","status":1,"longitude":115.812407},{"city":"南昌","org_id":167,"admin_id":158,"latitude":28.757954,"serve_type":0,"name":"江西农业大学南昌商学院","id":667682,"area_id":667682,"region":"经开区","status":1,"longitude":115.858617},{"city":"南昌","org_id":168,"admin_id":158,"latitude":28.740442,"serve_type":0,"name":"江西交通职业技术学院","id":667683,"area_id":667683,"region":"经开区","status":1,"longitude":115.866241},{"city":"南昌","org_id":169,"admin_id":158,"latitude":28.727336,"serve_type":0,"name":"东华理工大学南昌校区","id":667684,"area_id":667684,"region":"经开区","status":1,"longitude":115.833113},{"city":"南昌","org_id":170,"admin_id":158,"latitude":28.71435,"serve_type":0,"name":"华东交通大学理工学院","id":667685,"area_id":667685,"region":"经开区","status":1,"longitude":115.832334},{"city":"南昌","org_id":171,"admin_id":158,"latitude":28.75113,"serve_type":0,"name":"江西财经大学蛟桥校区","id":667686,"area_id":667686,"region":"经开区","status":1,"longitude":115.861057},{"city":"南昌","org_id":172,"admin_id":158,"latitude":28.748794,"serve_type":0,"name":"华东交通大学","id":667687,"area_id":667687,"region":"经开区","status":1,"longitude":115.875099},{"city":"南昌","org_id":173,"admin_id":158,"latitude":28.768197,"serve_type":0,"name":"江西农业大学","id":667688,"area_id":667688,"region":"经开区","status":1,"longitude":115.839315},{"city":"南昌","org_id":174,"admin_id":158,"latitude":28.739024,"serve_type":0,"name":"南昌理工学院","id":667689,"area_id":667689,"region":"经开区","status":1,"longitude":115.838235},{"city":"南昌","org_id":175,"admin_id":158,"latitude":28.680115,"serve_type":0,"name":"江西中医药大学新校区","id":667690,"area_id":667690,"region":"经开区","status":1,"longitude":115.757768},{"city":"南昌","org_id":176,"admin_id":158,"latitude":28.711419,"serve_type":0,"name":"江西旅游商贸职业学院","id":667691,"area_id":667691,"region":"经开区","status":1,"longitude":115.796017}],"name":"经开区","status":1},{"places":[{"city":"南昌","org_id":159,"admin_id":158,"latitude":28.678586,"serve_type":0,"name":"江西制造职业技术学院","id":667650,"area_id":667650,"region":"高新区","status":1,"longitude":116.009942},{"city":"南昌","org_id":159,"admin_id":158,"latitude":8.680075,"serve_type":0,"name":"江西现代职业技术学院","id":667651,"area_id":667651,"region":"高新区","status":1,"longitude":116.006199},{"city":"南昌","org_id":160,"admin_id":158,"latitude":28.699158,"serve_type":0,"name":"江西工业职业技术学院瑶湖校区","id":667652,"area_id":667652,"region":"高新区","status":1,"longitude":116.029226},{"city":"南昌","org_id":160,"admin_id":158,"latitude":28.706097,"serve_type":0,"name":"江西外语外贸职业学院","id":667653,"area_id":667653,"region":"高新区","status":1,"longitude":116.037444},{"city":"南昌","org_id":160,"admin_id":158,"latitude":28.695079,"serve_type":0,"name":"南昌工程学院","id":667655,"area_id":667655,"region":"高新区","status":1,"longitude":116.036295},{"city":"南昌","org_id":161,"admin_id":158,"latitude":8.686017,"serve_type":0,"name":"江西科技学院瑶湖校区","id":667675,"area_id":667675,"region":"高新区","status":1,"longitude":116.025951},{"city":"南昌","org_id":161,"admin_id":158,"latitude":28.687799,"serve_type":0,"name":"江西师范大学瑶湖校区","id":667676,"area_id":667676,"region":"高新区","status":1,"longitude":116.030305}],"name":"高新区","status":1}],"id":2},{"name":"南通","districts":[{"places":[{"city":"南通","org_id":265,"admin_id":94,"latitude":32.016454,"serve_type":0,"name":"南通职业大学","id":672682,"area_id":672682,"region":"崇川区","status":1,"longitude":120.900609},{"city":"南通","org_id":265,"admin_id":94,"latitude":32.010775,"serve_type":0,"name":"南通科技学院","id":672683,"area_id":672683,"region":"崇川区","status":1,"longitude":120.899045},{"city":"南通","org_id":265,"admin_id":94,"latitude":32.016454,"serve_type":0,"name":"南通技师学院","id":672684,"area_id":672684,"region":"崇川区","status":1,"longitude":120.900609},{"city":"南通","org_id":266,"admin_id":94,"latitude":32.013232,"serve_type":0,"name":"江苏工程职业技术学院","id":672685,"area_id":672685,"region":"崇川区","status":1,"longitude":120.895943},{"city":"南通","org_id":267,"admin_id":94,"latitude":32.023855,"serve_type":0,"name":"南通大学杏林学院","id":672686,"area_id":672686,"region":"崇川区","status":1,"longitude":120.913047},{"city":"南通","org_id":269,"admin_id":94,"latitude":31.980458,"serve_type":0,"name":"南通大学本部","id":672688,"area_id":672688,"region":"崇川区","status":1,"longitude":120.916828}],"name":"崇川区","status":1},{"places":[{"city":"南通","org_id":268,"admin_id":94,"latitude":32.057524,"serve_type":0,"name":"南通商贸高等职业学校","id":672687,"area_id":672687,"region":"港闸区","status":1,"longitude":120.892768}],"name":"港闸区","status":1}],"id":3},{"name":"合肥","districts":[{"places":[{"city":"合肥","org_id":56,"admin_id":53,"latitude":31.849666,"serve_type":0,"name":"合肥工业大学老校区","id":659561,"area_id":659561,"region":"包河区","status":1,"longitude":117.301928}],"name":"包河区","status":1},{"places":[{"city":"合肥","org_id":142,"admin_id":53,"latitude":31.936344,"serve_type":0,"name":"安徽职业技术学院","id":660078,"area_id":660078,"region":"瑶海区","status":1,"longitude":117.049283},{"city":"合肥","org_id":143,"admin_id":53,"latitude":31.936344,"serve_type":0,"name":"安徽中医药大学","id":660075,"area_id":660075,"region":"瑶海区","status":1,"longitude":117.049283},{"city":"合肥","org_id":143,"admin_id":53,"latitude":32.002999,"serve_type":0,"name":"安徽农业大学经济技术学院","id":660076,"area_id":660076,"region":"瑶海区","status":1,"longitude":117.048708},{"city":"合肥","org_id":143,"admin_id":53,"latitude":31.934404,"serve_type":0,"name":"安徽城市管理职业学院","id":660077,"area_id":660077,"region":"瑶海区","status":1,"longitude":117.399091}],"name":"瑶海区","status":1},{"places":[{"city":"合肥","org_id":42,"admin_id":53,"latitude":31.772032,"serve_type":0,"name":"安徽大学","id":659039,"area_id":659039,"region":"经开区","status":1,"longitude":117.190772},{"city":"合肥","org_id":54,"admin_id":53,"latitude":31.774895,"serve_type":0,"name":"合肥工业大学翡翠湖","id":659560,"area_id":659560,"region":"经开区","status":1,"longitude":117.208273},{"city":"合肥","org_id":57,"admin_id":53,"latitude":31.749628,"serve_type":0,"name":"安徽建筑大学南区","id":659562,"area_id":659562,"region":"经开区","status":1,"longitude":117.229656},{"city":"合肥","org_id":57,"admin_id":53,"latitude":31.756828,"serve_type":0,"name":"合肥师范学院锦绣校区","id":659563,"area_id":659563,"region":"经开区","status":1,"longitude":117.235094},{"city":"合肥","org_id":66,"admin_id":53,"latitude":31.758432,"serve_type":0,"name":"安徽三联学院","id":659571,"area_id":659571,"region":"经开区","status":1,"longitude":117.204258},{"city":"合肥","org_id":66,"admin_id":53,"latitude":31.761379,"serve_type":0,"name":"合肥财经职业学院","id":659572,"area_id":659572,"region":"经开区","status":1,"longitude":117.184218},{"city":"合肥","org_id":66,"admin_id":53,"latitude":31.757948,"serve_type":0,"name":"安徽财贸职业学院","id":659573,"area_id":659573,"region":"经开区","status":1,"longitude":117.187643},{"city":"合肥","org_id":66,"admin_id":53,"latitude":31.765179,"serve_type":0,"name":"合肥信息技术职业学院","id":659574,"area_id":659574,"region":"经开区","status":1,"longitude":117.178029},{"city":"合肥","org_id":71,"admin_id":53,"latitude":31.965855,"serve_type":0,"name":"安徽工商职业学院","id":659576,"area_id":659576,"region":"经开区","status":1,"longitude":117.267383}],"name":"经开区","status":1},{"places":[{"city":"合肥","org_id":70,"admin_id":53,"latitude":31.831383,"serve_type":0,"name":"安徽水利水电职业技术学院","id":659575,"area_id":659575,"region":"肥东县","status":1,"longitude":117.433896}],"name":"肥东县","status":1},{"places":[{"city":"合肥","org_id":64,"admin_id":53,"latitude":31.749044,"serve_type":0,"name":"文达信息工程学院","id":659569,"area_id":659569,"region":"肥西县","status":1,"longitude":117.025546},{"city":"合肥","org_id":64,"admin_id":53,"latitude":31.745682,"serve_type":0,"name":"安徽外国语学校","id":659570,"area_id":659570,"region":"肥西县","status":1,"longitude":117.03024}],"name":"肥西县","status":1},{"places":[{"city":"合肥","org_id":61,"admin_id":53,"latitude":31.83294,"serve_type":0,"name":"安徽新华学院","id":659566,"area_id":659566,"region":"蜀山区","status":1,"longitude":117.191521},{"city":"合肥","org_id":61,"admin_id":53,"latitude":31.83268,"serve_type":0,"name":"安徽经济管理学院","id":659567,"area_id":659567,"region":"蜀山区","status":1,"longitude":117.291145},{"city":"合肥","org_id":69,"admin_id":53,"latitude":31.863084,"serve_type":0,"name":"安徽农业大学","id":659565,"area_id":659565,"region":"蜀山区","status":1,"longitude":117.267898}],"name":"蜀山区","status":1}],"id":4},{"name":"宁波","districts":[{"places":[{"city":"宁波","org_id":334,"admin_id":75,"latitude":29.914867,"serve_type":0,"name":"宁波大学东校区","id":672777,"area_id":672777,"region":"江北区","status":1,"longitude":121.643725}],"name":"江北区","status":1},{"places":[{"city":"宁波","org_id":333,"admin_id":75,"latitude":29.821442,"serve_type":0,"name":"浙江大学宁波理工学院","id":672776,"area_id":672776,"region":"鄞州区","status":1,"longitude":121.581121},{"city":"宁波","org_id":336,"admin_id":75,"latitude":29.871211,"serve_type":0,"name":"浙江工商职业技术学院","id":672780,"area_id":672780,"region":"鄞州区","status":1,"longitude":121.512921}],"name":"鄞州区","status":1},{"places":[{"city":"宁波","org_id":335,"admin_id":75,"latitude":29.919969,"serve_type":0,"name":"宁波大学科技技术学院","id":672778,"area_id":672778,"region":"镇海区","status":1,"longitude":121.63835},{"city":"宁波","org_id":335,"admin_id":75,"latitude":29.91993,"serve_type":0,"name":"浙江纺织服装职业技术学院","id":672779,"area_id":672779,"region":"镇海区","status":1,"longitude":121.630187}],"name":"镇海区","status":1}],"id":5},{"name":"常州","districts":[{"places":[{"city":"常州","org_id":255,"admin_id":11,"latitude":31.824971,"serve_type":0,"name":"河海大学常州校区","id":672666,"area_id":672666,"region":"新北区","status":1,"longitude":119.986474},{"city":"常州","org_id":255,"admin_id":11,"latitude":31.821213,"serve_type":0,"name":"常州工学院新北校区","id":672667,"area_id":672667,"region":"新北区","status":1,"longitude":119.999797}],"name":"新北区","status":1},{"places":[{"city":"常州","org_id":256,"admin_id":11,"latitude":31.684401,"serve_type":0,"name":"常州机电职业技术学院","id":672668,"area_id":672668,"region":"武进区","status":1,"longitude":119.953917},{"city":"常州","org_id":256,"admin_id":11,"latitude":31.684547,"serve_type":0,"name":"常州轻工职业技术学院","id":672669,"area_id":672669,"region":"武进区","status":1,"longitude":119.946214},{"city":"常州","org_id":256,"admin_id":11,"latitude":31.684332,"serve_type":0,"name":"常州信息职业技术学院","id":672670,"area_id":672670,"region":"武进区","status":1,"longitude":119.961397},{"city":"常州","org_id":257,"admin_id":11,"latitude":31.689985,"serve_type":0,"name":"常州大学武进校区","id":672671,"area_id":672671,"region":"武进区","status":1,"longitude":119.961711},{"city":"常州","org_id":258,"admin_id":11,"latitude":31.690999,"serve_type":0,"name":"常州工程职业技术学院","id":672672,"area_id":672672,"region":"武进区","status":1,"longitude":119.954121},{"city":"常州","org_id":258,"admin_id":11,"latitude":31.689624,"serve_type":0,"name":"常州纺织服装职业技术学院","id":672673,"area_id":672673,"region":"武进区","status":1,"longitude":119.946169},{"city":"常州","org_id":260,"admin_id":11,"latitude":31.760796,"serve_type":0,"name":"江苏理工学院","id":672675,"area_id":672675,"region":"武进区","status":1,"longitude":119.925259}],"name":"武进区","status":1},{"places":[{"city":"常州","org_id":259,"admin_id":11,"latitude":31.789245,"serve_type":0,"name":"常州大学白云校区","id":672674,"area_id":672674,"region":"钟楼区","status":1,"longitude":119.912475}],"name":"钟楼区","status":1}],"id":6},{"name":"广州","districts":[{"places":[{"city":"广州","org_id":291,"admin_id":231,"latitude":23.202193,"serve_type":0,"name":"广州工业大学（龙洞校区）","id":672725,"area_id":672725,"region":"天河区","status":1,"longitude":113.36996},{"city":"广州","org_id":295,"admin_id":231,"latitude":23.142191,"serve_type":0,"name":"华南师范大学","id":672730,"area_id":672730,"region":"天河区","status":1,"longitude":113.354389},{"city":"广州","org_id":296,"admin_id":231,"latitude":23.197642,"serve_type":0,"name":"广东生态工程职业学院","id":672731,"area_id":672731,"region":"天河区","status":1,"longitude":113.38173},{"city":"广州","org_id":299,"admin_id":231,"latitude":23.219381,"serve_type":0,"name":"广东工程职业技术学院","id":672734,"area_id":672734,"region":"天河区","status":1,"longitude":113.384817},{"city":"广州","org_id":300,"admin_id":231,"latitude":23.20774,"serve_type":0,"name":"广东金融学院","id":672735,"area_id":672735,"region":"天河区","status":1,"longitude":113.387109},{"city":"广州","org_id":300,"admin_id":231,"latitude":23.208545,"serve_type":0,"name":"广东食品药品职业学院","id":672736,"area_id":672736,"region":"天河区","status":1,"longitude":113.381139},{"city":"广州","org_id":300,"admin_id":231,"latitude":23.149966,"serve_type":0,"name":"广州体育学院","id":672737,"area_id":672737,"region":"天河区","status":1,"longitude":113.325316},{"city":"广州","org_id":303,"admin_id":231,"latitude":23.16153,"serve_type":0,"name":"私立华联大学","id":672739,"area_id":672739,"region":"天河区","status":1,"longitude":113.412329},{"city":"广州","org_id":305,"admin_id":231,"latitude":23.131822,"serve_type":0,"name":"暨南大学","id":672741,"area_id":672741,"region":"天河区","status":1,"longitude":113.354383},{"city":"广州","org_id":309,"admin_id":231,"latitude":23.161023,"serve_type":0,"name":"华南农业大学","id":672746,"area_id":672746,"region":"天河区","status":1,"longitude":113.359105},{"city":"广州","org_id":313,"admin_id":231,"latitude":23.173333,"serve_type":0,"name":"广东岭南职业技术学院","id":672751,"area_id":672751,"region":"天河区","status":1,"longitude":113.423223}],"name":"天河区","status":1},{"places":[{"city":"广州","org_id":297,"admin_id":231,"latitude":23.10293,"serve_type":0,"name":"中山大学（海珠区校区）","id":672732,"area_id":672732,"region":"海珠区","status":1,"longitude":113.30499},{"city":"广州","org_id":298,"admin_id":231,"latitude":23.097329,"serve_type":0,"name":"广东轻工职业技术学院（东校区）","id":672733,"area_id":672733,"region":"海珠区","status":1,"longitude":113.30604},{"city":"广州","org_id":307,"admin_id":231,"latitude":23.09275,"serve_type":0,"name":"广州财经大学","id":672744,"area_id":672744,"region":"海珠区","status":1,"longitude":113.363914}],"name":"海珠区","status":1},{"places":[{"city":"广州","org_id":314,"admin_id":231,"latitude":23.048171,"serve_type":0,"name":"广州医科大学","id":672752,"area_id":672752,"region":"番禺区","status":1,"longitude":113.432337}],"name":"番禺区","status":1},{"places":[{"city":"广州","org_id":306,"admin_id":231,"latitude":23.409257,"serve_type":0,"name":"广州科技职业技术学院","id":672742,"area_id":672742,"region":"白云区","status":1,"longitude":113.469434},{"city":"广州","org_id":306,"admin_id":231,"latitude":23.40696,"serve_type":0,"name":"广州工贸职业技术学院","id":672743,"area_id":672743,"region":"白云区","status":1,"longitude":113.466178},{"city":"广州","org_id":308,"admin_id":231,"latitude":23.343676,"serve_type":0,"name":"广东外语外贸大学南国商学院","id":672745,"area_id":672745,"region":"白云区","status":1,"longitude":113.388441},{"city":"广州","org_id":310,"admin_id":231,"latitude":23.267264,"serve_type":0,"name":"广东技术师范学院天河学院","id":672747,"area_id":672747,"region":"白云区","status":1,"longitude":113.463895},{"city":"广州","org_id":311,"admin_id":231,"latitude":23.276252,"serve_type":0,"name":"白云学院","id":672748,"area_id":672748,"region":"白云区","status":1,"longitude":113.219079},{"city":"广州","org_id":311,"admin_id":231,"latitude":23.284568,"serve_type":0,"name":"广东技术师范学院白云校区","id":672749,"area_id":672749,"region":"白云区","status":1,"longitude":113.222865},{"city":"广州","org_id":312,"admin_id":231,"latitude":23.38638,"serve_type":0,"name":"机电职业技术学院","id":672750,"area_id":672750,"region":"白云区","status":1,"longitude":113.451427}],"name":"白云区","status":1},{"places":[{"city":"广州","org_id":292,"admin_id":231,"latitude":23.416371,"serve_type":0,"name":"广州培正学院","id":672726,"area_id":672726,"region":"花都区","status":1,"longitude":113.097382},{"city":"广州","org_id":293,"admin_id":231,"latitude":23.410128,"serve_type":0,"name":"广东第二师范学院花都学院","id":672727,"area_id":672727,"region":"花都区","status":1,"longitude":113.191155},{"city":"广州","org_id":293,"admin_id":231,"latitude":23.405667,"serve_type":0,"name":"广东行政职业学院","id":672728,"area_id":672728,"region":"花都区","status":1,"longitude":113.192526},{"city":"广州","org_id":294,"admin_id":231,"latitude":23.443395,"serve_type":0,"name":"广州工商职业技术学院","id":672729,"area_id":672729,"region":"花都区","status":1,"longitude":113.192651},{"city":"广州","org_id":304,"admin_id":231,"latitude":23.438314,"serve_type":0,"name":"华南理工大学广州学院","id":672740,"area_id":672740,"region":"花都区","status":1,"longitude":113.178352}],"name":"花都区","status":1},{"places":[{"city":"广州","org_id":302,"admin_id":231,"latitude":23.134614,"serve_type":0,"name":"中山大学北校区","id":672738,"area_id":672738,"region":"越秀区","status":1,"longitude":113.296519}],"name":"越秀区","status":1}],"id":7},{"name":"徐州","districts":[{"places":[{"city":"徐州","org_id":277,"admin_id":236,"latitude":34.203075,"serve_type":0,"name":"徐州工程学院中心校区","id":672698,"area_id":672698,"region":"云龙区","status":1,"longitude":117.30583}],"name":"云龙区","status":1},{"places":[{"city":"徐州","org_id":274,"admin_id":236,"latitude":34.227968,"serve_type":0,"name":"中国矿业大学徐海学院（文昌校区）","id":672695,"area_id":672695,"region":"泉山区","status":1,"longitude":117.205265},{"city":"徐州","org_id":278,"admin_id":236,"latitude":34.218551,"serve_type":0,"name":"徐州工程学院城南校区","id":672699,"area_id":672699,"region":"泉山区","status":1,"longitude":117.222212}],"name":"泉山区","status":1},{"places":[{"city":"徐州","org_id":275,"admin_id":236,"latitude":34.201676,"serve_type":0,"name":"江苏师范大学泉山校区","id":672696,"area_id":672696,"region":"铜山区","status":1,"longitude":117.185967},{"city":"徐州","org_id":276,"admin_id":236,"latitude":34.221558,"serve_type":0,"name":"中国矿业大学南湖校区","id":672697,"area_id":672697,"region":"铜山区","status":1,"longitude":117.153897},{"city":"徐州","org_id":279,"admin_id":236,"latitude":34.207752,"serve_type":0,"name":"江苏建筑职业技术学院","id":672700,"area_id":672700,"region":"铜山区","status":1,"longitude":117.186403},{"city":"徐州","org_id":280,"admin_id":236,"latitude":34.200519,"serve_type":0,"name":"江苏师范大学科文学院","id":672701,"area_id":672701,"region":"铜山区","status":1,"longitude":117.186251}],"name":"铜山区","status":1}],"id":8},{"name":"成都","districts":[{"places":[{"city":"成都","org_id":208,"admin_id":196,"latitude":30.679034,"serve_type":0,"name":"成都理工大学","id":670223,"area_id":670223,"region":"成华区","status":1,"longitude":104.150675}],"name":"成华区","status":1},{"places":[{"city":"成都","org_id":197,"admin_id":196,"latitude":30.636971,"serve_type":0,"name":"四川大学望江校区","id":670206,"area_id":670206,"region":"武侯区","status":1,"longitude":104.089453}],"name":"武侯区","status":1},{"places":[{"city":"成都","org_id":198,"admin_id":196,"latitude":30.682187,"serve_type":0,"name":"成都师范学院","id":670207,"area_id":670207,"region":"温江区","status":1,"longitude":103.834902},{"city":"成都","org_id":199,"admin_id":196,"latitude":30.682187,"serve_type":0,"name":"成都中医药大学","id":670208,"area_id":670208,"region":"温江区","status":1,"longitude":103.834902},{"city":"成都","org_id":199,"admin_id":196,"latitude":30.694733,"serve_type":0,"name":"四川交通职业技术学院","id":670209,"area_id":670209,"region":"温江区","status":1,"longitude":103.823222},{"city":"成都","org_id":200,"admin_id":196,"latitude":30.702636,"serve_type":0,"name":"成都农业科技职业学院","id":670210,"area_id":670210,"region":"温江区","status":1,"longitude":103.82241}],"name":"温江区","status":1},{"places":[{"city":"成都","org_id":201,"admin_id":196,"latitude":30.778293,"serve_type":0,"name":"西华大学","id":670211,"area_id":670211,"region":"郫县","status":1,"longitude":103.956795},{"city":"成都","org_id":202,"admin_id":196,"latitude":30.82514,"serve_type":0,"name":"四川工商学院","id":670212,"area_id":670212,"region":"郫县","status":1,"longitude":103.991762},{"city":"成都","org_id":202,"admin_id":196,"latitude":30.828869,"serve_type":0,"name":"四川科技职业技术学院","id":670830,"area_id":670830,"region":"郫县","status":1,"longitude":103.986708},{"city":"成都","org_id":203,"admin_id":196,"latitude":30.794558,"serve_type":0,"name":"成都工业学院","id":670215,"area_id":670215,"region":"郫县","status":1,"longitude":103.895294},{"city":"成都","org_id":204,"admin_id":196,"latitude":30.768667,"serve_type":0,"name":"西南交通大学犀浦校区","id":670216,"area_id":670216,"region":"郫县","status":1,"longitude":103.991919}],"name":"郫县","status":1},{"places":[{"city":"成都","org_id":207,"admin_id":196,"latitude":30.613695,"serve_type":0,"name":"四川师范大学狮子山校区（本部）","id":670451,"area_id":670451,"region":"锦江区","status":1,"longitude":104.129715}],"name":"锦江区","status":1},{"places":[{"city":"成都","org_id":205,"admin_id":196,"latitude":30.585835,"serve_type":0,"name":"四川旅游学院","id":670217,"area_id":670217,"region":"龙泉驿区","status":1,"longitude":104.284783},{"city":"成都","org_id":206,"admin_id":196,"latitude":30.65545,"serve_type":0,"name":"成都大学","id":670221,"area_id":670221,"region":"龙泉驿区","status":1,"longitude":104.195311}],"name":"龙泉驿区","status":1}],"id":9},{"name":"扬州","districts":[{"places":[{"city":"扬州","org_id":210,"admin_id":209,"latitude":32.404344,"serve_type":0,"name":"扬州职业大学","id":671068,"area_id":671068,"region":"邗江区","status":1,"longitude":119.385867},{"city":"扬州","org_id":213,"admin_id":209,"latitude":32.341974,"serve_type":0,"name":"扬州工业职业技术学院","id":671098,"area_id":671098,"region":"邗江区","status":1,"longitude":119.403639},{"city":"扬州","org_id":213,"admin_id":209,"latitude":32.340682,"serve_type":0,"name":"南邮通达学院","id":671135,"area_id":671135,"region":"邗江区","status":1,"longitude":119.407037},{"city":"扬州","org_id":214,"admin_id":209,"latitude":32.335713,"serve_type":0,"name":"江海学院","id":671099,"area_id":671099,"region":"邗江区","status":1,"longitude":119.441811},{"city":"扬州","org_id":215,"admin_id":209,"latitude":32.346832,"serve_type":0,"name":"扬州大学扬子津校区","id":671100,"area_id":671100,"region":"邗江区","status":1,"longitude":119.404013},{"city":"扬州","org_id":218,"admin_id":209,"latitude":32.392885,"serve_type":0,"name":"扬州大学广陵学院","id":671136,"area_id":671136,"region":"邗江区","status":1,"longitude":119.432385},{"city":"扬州","org_id":218,"admin_id":209,"latitude":32.396697,"serve_type":0,"name":"扬州大学文汇路校区","id":671516,"area_id":671516,"region":"邗江区","status":1,"longitude":119.428957}],"name":"邗江区","status":1}],"id":10},{"name":"无锡","districts":[{"places":[{"city":"无锡","org_id":104,"admin_id":94,"latitude":31.575353,"serve_type":0,"name":"江苏信息学院","id":660026,"area_id":660026,"region":"惠山区","status":1,"longitude":120.176752},{"city":"无锡","org_id":104,"admin_id":94,"latitude":31.48892,"serve_type":0,"name":"无锡交通技师学院","id":660027,"area_id":660027,"region":"惠山区","status":1,"longitude":120.246200},{"city":"无锡","org_id":104,"admin_id":94,"latitude":31.569085,"serve_type":0,"name":"无锡商业职业技术学院","id":660030,"area_id":660030,"region":"惠山区","status":1,"longitude":120.181204},{"city":"无锡","org_id":104,"admin_id":94,"latitude":31.590157,"serve_type":0,"name":"无锡城市职业技术学院","id":660031,"area_id":660031,"region":"惠山区","status":1,"longitude":120.190621},{"city":"无锡","org_id":104,"admin_id":94,"latitude":31.574491,"serve_type":0,"name":"江南影视学院","id":660032,"area_id":660032,"region":"惠山区","status":1,"longitude":120.179431}],"name":"惠山区","status":1},{"places":[{"city":"无锡","org_id":101,"admin_id":94,"latitude":31.488189,"serve_type":0,"name":"江南大学(蠡湖校区)","id":660020,"area_id":660020,"region":"滨湖区","status":1,"longitude":120.283919},{"city":"无锡","org_id":101,"admin_id":94,"latitude":31.500905,"serve_type":0,"name":"无锡职业技术学院高浪路","id":660021,"area_id":660021,"region":"滨湖区","status":1,"longitude":120.279259},{"city":"无锡","org_id":103,"admin_id":94,"latitude":31.580906,"serve_type":0,"name":"无锡太湖学院","id":660022,"area_id":660022,"region":"滨湖区","status":1,"longitude":120.232057}],"name":"滨湖区","status":1}],"id":11},{"name":"杭州","districts":[{"places":[{"city":"杭州","org_id":77,"admin_id":75,"latitude":30.327348,"serve_type":0,"name":"中国计量学院","id":659968,"area_id":659968,"region":"下沙区","status":1,"longitude":120.369039},{"city":"杭州","org_id":77,"admin_id":75,"latitude":30.319843,"serve_type":0,"name":"浙江理工大学","id":659969,"area_id":659969,"region":"下沙区","status":1,"longitude":120.359352},{"city":"杭州","org_id":77,"admin_id":75,"latitude":30.319375,"serve_type":0,"name":"浙江水利水电学院","id":659970,"area_id":659970,"region":"下沙区","status":1,"longitude":120.380137},{"city":"杭州","org_id":77,"admin_id":75,"latitude":30.319336,"serve_type":0,"name":"浙江警官职业学院下沙校区","id":659971,"area_id":659971,"region":"下沙区","status":1,"longitude":120.366417},{"city":"杭州","org_id":78,"admin_id":75,"latitude":30.31498,"serve_type":0,"name":"浙江工商大学下沙校区","id":659972,"area_id":659972,"region":"下沙区","status":1,"longitude":120.395477},{"city":"杭州","org_id":78,"admin_id":75,"latitude":30.313016,"serve_type":0,"name":"浙江经济职业技术学院","id":659973,"area_id":659973,"region":"下沙区","status":1,"longitude":120.38569},{"city":"杭州","org_id":78,"admin_id":75,"latitude":30.322142,"serve_type":0,"name":"杭州师范大学下沙校区","id":659974,"area_id":659974,"region":"下沙区","status":1,"longitude":120.401177},{"city":"杭州","org_id":78,"admin_id":75,"latitude":30.32254,"serve_type":0,"name":"浙江经贸职业技术学院","id":659975,"area_id":659975,"region":"下沙区","status":1,"longitude":120.38891},{"city":"杭州","org_id":78,"admin_id":75,"latitude":30.324847,"serve_type":0,"name":"浙江财经大学下沙校区","id":659976,"area_id":659976,"region":"下沙区","status":1,"longitude":120.400557},{"city":"杭州","org_id":78,"admin_id":75,"latitude":30.327169,"serve_type":0,"name":"浙江金融职业学院","id":659977,"area_id":659977,"region":"下沙区","status":1,"longitude":120.390093},{"city":"杭州","org_id":80,"admin_id":75,"latitude":30.326616,"serve_type":0,"name":"杭州职业技术学院","id":659978,"area_id":659978,"region":"下沙区","status":1,"longitude":120.35845},{"city":"杭州","org_id":80,"admin_id":75,"latitude":30.326912,"serve_type":0,"name":"浙江传媒学院","id":659979,"area_id":659979,"region":"下沙区","status":1,"longitude":120.35043},{"city":"杭州","org_id":80,"admin_id":75,"latitude":30.320139,"serve_type":0,"name":"杭州电子科技大学","id":659980,"area_id":659980,"region":"下沙区","status":1,"longitude":120.34917}],"name":"下沙区","status":1},{"places":[{"city":"杭州","org_id":85,"admin_id":75,"latitude":30.324223,"serve_type":0,"name":"浙江树人大学/浙江大学城市学院","id":659985,"area_id":659985,"region":"拱墅区","status":1,"longitude":120.164552}],"name":"拱墅区","status":1},{"places":[{"city":"杭州","org_id":156,"admin_id":75,"latitude":120.172735,"serve_type":0,"name":"浙江工业大学朝晖校区","id":667492,"area_id":667492,"region":"朝晖区","status":1,"longitude":30.298915}],"name":"朝晖区","status":1},{"places":[{"city":"杭州","org_id":157,"admin_id":75,"latitude":120.161562,"serve_type":0,"name":"浙江中医药大学","id":667535,"area_id":667535,"region":"滨江区","status":1,"longitude":30.179283},{"city":"杭州","org_id":157,"admin_id":75,"latitude":120.161562,"serve_type":0,"name":"浙江医学高等专科学校","id":667536,"area_id":667536,"region":"滨江区","status":1,"longitude":30.179283},{"city":"杭州","org_id":157,"admin_id":75,"latitude":120.161562,"serve_type":0,"name":"浙江商业职业技术学院","id":667537,"area_id":667537,"region":"滨江区","status":1,"longitude":30.179283},{"city":"杭州","org_id":157,"admin_id":75,"latitude":120.161562,"serve_type":0,"name":"浙江艺术职业学院","id":667538,"area_id":667538,"region":"滨江区","status":1,"longitude":30.179283},{"city":"杭州","org_id":157,"admin_id":75,"latitude":120.161562,"serve_type":0,"name":"浙江机电职业技术学院","id":667539,"area_id":667539,"region":"滨江区","status":1,"longitude":30.179283},{"city":"杭州","org_id":157,"admin_id":75,"latitude":120.161562,"serve_type":0,"name":"滨江高教园","id":671019,"area_id":671019,"region":"滨江区","status":1,"longitude":30.179283}],"name":"滨江区","status":1},{"places":[{"city":"杭州","org_id":81,"admin_id":75,"latitude":30.230782,"serve_type":0,"name":"浙江工业大学屏峰校区","id":659981,"area_id":659981,"region":"西湖区","status":1,"longitude":120.043408},{"city":"杭州","org_id":82,"admin_id":75,"latitude":30.225789,"serve_type":0,"name":"浙江科技学院/长征职业技术学院","id":659982,"area_id":659982,"region":"西湖区","status":1,"longitude":120.034178},{"city":"杭州","org_id":83,"admin_id":75,"latitude":30.310607,"serve_type":0,"name":"浙江大学紫金港校区","id":659983,"area_id":659983,"region":"西湖区","status":1,"longitude":120.093059}],"name":"西湖区","status":1}],"id":12},{"name":"武汉","districts":[{"places":[{"city":"武汉","org_id":126,"admin_id":89,"latitude":30.61282,"serve_type":0,"name":"武汉理工大学余家头校区","id":660759,"area_id":660759,"region":"武昌区","status":1,"longitude":114.362296},{"city":"武汉","org_id":128,"admin_id":89,"latitude":30.595325,"serve_type":0,"name":"湖北大学","id":660055,"area_id":660055,"region":"武昌区","status":1,"longitude":114.285563}],"name":"武昌区","status":1},{"places":[{"city":"武汉","org_id":184,"admin_id":89,"latitude":30.518263,"serve_type":0,"name":"江汉大学","id":669226,"area_id":669226,"region":"汉阳区","status":1,"longitude":114.166096}],"name":"汉阳区","status":1},{"places":[{"city":"武汉","org_id":108,"admin_id":89,"latitude":30.527681,"serve_type":0,"name":"武汉体育学院体育科技院","id":660762,"area_id":660762,"region":"江夏区","status":1,"longitude":114.385878},{"city":"武汉","org_id":109,"admin_id":89,"latitude":30.489987,"serve_type":0,"name":"武汉软件工程职业学院","id":660035,"area_id":660035,"region":"江夏区","status":1,"longitude":114.425346},{"city":"武汉","org_id":109,"admin_id":89,"latitude":30.522385,"serve_type":0,"name":"华中师范大学武汉传媒学院","id":660036,"area_id":660036,"region":"江夏区","status":1,"longitude":114.369487},{"city":"武汉","org_id":121,"admin_id":89,"latitude":30.381994,"serve_type":0,"name":"武汉纺织大学阳光校区","id":660049,"area_id":660049,"region":"江夏区","status":1,"longitude":114.345224},{"city":"武汉","org_id":122,"admin_id":89,"latitude":30.428186,"serve_type":0,"name":"汉口学院","id":660050,"area_id":660050,"region":"江夏区","status":1,"longitude":114.323385},{"city":"武汉","org_id":122,"admin_id":89,"latitude":30.428186,"serve_type":0,"name":"武汉东湖学院","id":660760,"area_id":660760,"region":"江夏区","status":1,"longitude":114.323385},{"city":"武汉","org_id":122,"admin_id":89,"latitude":30.408573,"serve_type":0,"name":"长江工程职业技术学院","id":670393,"area_id":670393,"region":"江夏区","status":1,"longitude":114.322598},{"city":"武汉","org_id":123,"admin_id":89,"latitude":30.423873,"serve_type":0,"name":"湖北经济学院","id":660761,"area_id":660761,"region":"江夏区","status":1,"longitude":114.442464},{"city":"武汉","org_id":124,"admin_id":89,"latitude":30.528509,"serve_type":0,"name":"湖北水利水电职业技术学院","id":660051,"area_id":660051,"region":"江夏区","status":1,"longitude":114.368517},{"city":"武汉","org_id":124,"admin_id":89,"latitude":30.378933,"serve_type":0,"name":"武昌职业学院","id":660052,"area_id":660052,"region":"江夏区","status":1,"longitude":114.409557},{"city":"武汉","org_id":130,"admin_id":89,"latitude":30.486307,"serve_type":0,"name":"湖北第二师范学院","id":660058,"area_id":660058,"region":"江夏区","status":1,"longitude":114.456428},{"city":"武汉","org_id":132,"admin_id":89,"latitude":30.479452,"serve_type":0,"name":"中南财经政法大学南湖校区","id":660060,"area_id":660060,"region":"江夏区","status":1,"longitude":114.395549},{"city":"武汉","org_id":150,"admin_id":89,"latitude":30.465437,"serve_type":0,"name":"武汉工程大学流芳校区","id":664208,"area_id":664208,"region":"江夏区","status":1,"longitude":114.439026},{"city":"武汉","org_id":186,"admin_id":89,"latitude":30.448782,"serve_type":0,"name":"武汉大学珞珈学院","id":669228,"area_id":669228,"region":"江夏区","status":1,"longitude":114.317527},{"city":"武汉","org_id":187,"admin_id":89,"latitude":30.354013,"serve_type":0,"name":"中国地质大学江城学院","id":669231,"area_id":669231,"region":"江夏区","status":1,"longitude":114.343332},{"city":"武汉","org_id":188,"admin_id":89,"latitude":30.489808,"serve_type":0,"name":"武汉职业技术学院","id":669232,"area_id":669232,"region":"江夏区","status":1,"longitude":114.422796},{"city":"武汉","org_id":189,"admin_id":89,"latitude":30.423141,"serve_type":0,"name":"武昌理工学院","id":669621,"area_id":669621,"region":"江夏区","status":1,"longitude":114.376434},{"city":"武汉","org_id":191,"admin_id":89,"latitude":30.350288,"serve_type":0,"name":"湖北生态工程职业技术学院","id":669847,"area_id":669847,"region":"江夏区","status":1,"longitude":114.343234},{"city":"武汉","org_id":192,"admin_id":89,"latitude":30.472402,"serve_type":0,"name":"武汉理工大学华夏学院","id":669848,"area_id":669848,"region":"江夏区","status":1,"longitude":114.41804},{"city":"武汉","org_id":194,"admin_id":89,"latitude":30.406681,"serve_type":0,"name":"华中农业大学楚天学院","id":669850,"area_id":669850,"region":"江夏区","status":1,"longitude":114.416427}],"name":"江夏区","status":1},{"places":[{"city":"武汉","org_id":106,"admin_id":89,"latitude":30.544742,"serve_type":0,"name":"武汉大学","id":662436,"area_id":662436,"region":"洪山区","status":1,"longitude":114.37139},{"city":"武汉","org_id":107,"admin_id":89,"latitude":30.524555,"serve_type":0,"name":"武汉体育学院","id":660033,"area_id":660033,"region":"洪山区","status":1,"longitude":114.384514},{"city":"武汉","org_id":108,"admin_id":89,"latitude":30.408955,"serve_type":0,"name":"湖北城市建设职业技术学院","id":660034,"area_id":660034,"region":"洪山区","status":1,"longitude":114.443373},{"city":"武汉","org_id":127,"admin_id":89,"latitude":30.485528,"serve_type":0,"name":"湖北工业大学","id":660054,"area_id":660054,"region":"洪山区","status":1,"longitude":114.315352},{"city":"武汉","org_id":127,"admin_id":89,"latitude":30.477545,"serve_type":0,"name":"武汉铁路司机学校","id":665147,"area_id":665147,"region":"洪山区","status":1,"longitude":114.31708},{"city":"武汉","org_id":129,"admin_id":89,"latitude":30.591354,"serve_type":0,"name":"武汉科技大学城市学院","id":660056,"area_id":660056,"region":"洪山区","status":1,"longitude":114.434042},{"city":"武汉","org_id":129,"admin_id":89,"latitude":30.590234,"serve_type":0,"name":"武汉外语外事职业学院","id":660057,"area_id":660057,"region":"洪山区","status":1,"longitude":114.433729},{"city":"武汉","org_id":131,"admin_id":89,"latitude":30.467219,"serve_type":0,"name":"武汉工程大学武昌校区","id":660059,"area_id":660059,"region":"洪山区","status":1,"longitude":114.438927},{"city":"武汉","org_id":133,"admin_id":89,"latitude":30.515331,"serve_type":0,"name":"华中科技大学","id":660062,"area_id":660062,"region":"洪山区","status":1,"longitude":114.420207},{"city":"武汉","org_id":134,"admin_id":89,"latitude":30.525947,"serve_type":0,"name":"中国地质大学","id":660063,"area_id":660063,"region":"洪山区","status":1,"longitude":114.407704},{"city":"武汉","org_id":135,"admin_id":89,"latitude":30.491247,"serve_type":0,"name":"武昌工学院","id":660064,"area_id":660064,"region":"洪山区","status":1,"longitude":114.291962},{"city":"武汉","org_id":136,"admin_id":89,"latitude":30.514607,"serve_type":0,"name":"武汉交通职业学院","id":660065,"area_id":660065,"region":"洪山区","status":1,"longitude":114.378696},{"city":"武汉","org_id":137,"admin_id":89,"latitude":30.454628,"serve_type":0,"name":"湖北中医药大学黄家湖校区","id":660067,"area_id":660067,"region":"洪山区","status":1,"longitude":114.275576},{"city":"武汉","org_id":137,"admin_id":89,"latitude":30.464379,"serve_type":0,"name":"武汉长江工商学院","id":660068,"area_id":660068,"region":"洪山区","status":1,"longitude":114.278844},{"city":"武汉","org_id":138,"admin_id":89,"latitude":30.480121,"serve_type":0,"name":"华中农业大学","id":660069,"area_id":660069,"region":"洪山区","status":1,"longitude":114.364494},{"city":"武汉","org_id":139,"admin_id":89,"latitude":30.514296,"serve_type":0,"name":"武汉理工大学南湖校区","id":660070,"area_id":660070,"region":"洪山区","status":1,"longitude":114.339654},{"city":"武汉","org_id":139,"admin_id":89,"latitude":30.513091,"serve_type":0,"name":"武汉理工大学鉴湖校区","id":660070,"area_id":660070,"region":"洪山区","status":1,"longitude":114.343611},{"city":"武汉","org_id":140,"admin_id":89,"latitude":30.522385,"serve_type":0,"name":"华中师范大学","id":660071,"area_id":660071,"region":"洪山区","status":1,"longitude":114.369487},{"city":"武汉","org_id":140,"admin_id":89,"latitude":30.518605,"serve_type":0,"name":"武汉理工大学东西校区","id":660072,"area_id":660072,"region":"洪山区","status":1,"longitude":114.346036},{"city":"武汉","org_id":183,"admin_id":89,"latitude":30.493028,"serve_type":0,"name":"中南民族大学","id":660061,"area_id":660061,"region":"洪山区","status":1,"longitude":114.399661},{"city":"武汉","org_id":185,"admin_id":89,"latitude":30.495331,"serve_type":0,"name":"华中科技大学武昌分校","id":669227,"area_id":669227,"region":"洪山区","status":1,"longitude":114.315267},{"city":"武汉","org_id":186,"admin_id":89,"latitude":30.448214,"serve_type":0,"name":"武汉城市职业学院（南校区）","id":669229,"area_id":669229,"region":"洪山区","status":1,"longitude":114.31718},{"city":"武汉","org_id":186,"admin_id":89,"latitude":30.449864,"serve_type":0,"name":"湖北银河信息技术学院","id":669230,"area_id":669230,"region":"洪山区","status":1,"longitude":114.31866},{"city":"武汉","org_id":190,"admin_id":89,"latitude":30.446276,"serve_type":0,"name":"武汉科技大学黄家湖校区","id":660066,"area_id":660066,"region":"洪山区","status":1,"longitude":114.271657},{"city":"武汉","org_id":193,"admin_id":89,"latitude":30.500932,"serve_type":0,"name":"文华学院","id":669849,"area_id":669849,"region":"洪山区","status":1,"longitude":114.444249},{"city":"武汉","org_id":195,"admin_id":89,"latitude":30.533265,"serve_type":0,"name":"武汉大学信息学部","id":669851,"area_id":669851,"region":"洪山区","status":1,"longitude":114.364751}],"name":"洪山区","status":1},{"places":[{"city":"武汉","org_id":125,"admin_id":89,"latitude":30.630469,"serve_type":0,"name":"武汉科技大学青山校区","id":660053,"area_id":660053,"region":"青山区","status":1,"longitude":114.377423}],"name":"青山区","status":1}],"id":13},{"name":"泰州","districts":[{"places":[{"city":"泰州","org_id":271,"admin_id":11,"latitude":32.491982,"serve_type":0,"name":"泰州职业技术学院","id":672690,"area_id":672690,"region":"海陵区","status":1,"longitude":119.946218},{"city":"泰州","org_id":272,"admin_id":11,"latitude":32.481954,"serve_type":0,"name":"南京师范大学泰州学院","id":672691,"area_id":672691,"region":"海陵区","status":1,"longitude":119.947592},{"city":"泰州","org_id":273,"admin_id":11,"latitude":32.468963,"serve_type":0,"name":"南京理工大学泰州科技学院","id":672692,"area_id":672692,"region":"海陵区","status":1,"longitude":119.947028},{"city":"泰州","org_id":273,"admin_id":11,"latitude":32.476662,"serve_type":0,"name":"泰州学院","id":672693,"area_id":672693,"region":"海陵区","status":1,"longitude":119.947307},{"city":"泰州","org_id":273,"admin_id":11,"latitude":32.46268,"serve_type":0,"name":"江苏农牧职业技术学院","id":672694,"area_id":672694,"region":"海陵区","status":1,"longitude":119.945402}],"name":"海陵区","status":1},{"places":[{"city":"泰州","org_id":270,"admin_id":11,"latitude":32.384687,"serve_type":0,"name":"南京中医药大学翰林学院","id":672689,"area_id":672689,"region":"高港区","status":1,"longitude":119.901605}],"name":"高港区","status":1}],"id":14},{"name":"测试学校1","districts":[{"places":[{"city":"测试学校1","org_id":364,"admin_id":363,"latitude":11,"serve_type":0,"name":"测试学校1","id":672805,"area_id":672805,"region":"测试学校1","status":1,"longitude":11}],"name":"测试学校1","status":1}],"id":15},{"name":"测试学校2","districts":[{"places":[{"city":"测试学校2","org_id":364,"admin_id":363,"latitude":11,"serve_type":0,"name":"测试学校2","id":672806,"area_id":672806,"region":"测试学校2","status":1,"longitude":11}],"name":"测试学校2","status":1}],"id":16},{"name":"济南","districts":[{"places":[{"city":"济南","org_id":321,"admin_id":235,"latitude":36.661092,"serve_type":0,"name":"山东大学趵突泉校区","id":672759,"area_id":672759,"region":"历下区","status":1,"longitude":117.023177},{"city":"济南","org_id":328,"admin_id":235,"latitude":36.650828,"serve_type":0,"name":"山东经济学院(燕山校区)","id":672768,"area_id":672768,"region":"历下区","status":1,"longitude":117.079248},{"city":"济南","org_id":329,"admin_id":235,"latitude":36.660564,"serve_type":0,"name":"山东师范大学千佛山校区","id":672769,"area_id":672769,"region":"历下区","status":1,"longitude":117.04843},{"city":"济南","org_id":329,"admin_id":235,"latitude":36.656047,"serve_type":0,"name":"山东中医药大学历下校区","id":672770,"area_id":672770,"region":"历下区","status":1,"longitude":117.052862},{"city":"济南","org_id":329,"admin_id":235,"latitude":36.66204,"serve_type":0,"name":"山东艺术学院","id":672771,"area_id":672771,"region":"历下区","status":1,"longitude":117.052977},{"city":"济南","org_id":332,"admin_id":235,"latitude":36.670146,"serve_type":0,"name":"山东政法学院","id":672775,"area_id":672775,"region":"历下区","status":1,"longitude":117.093468}],"name":"历下区","status":1},{"places":[{"city":"济南","org_id":315,"admin_id":235,"latitude":36.688677,"serve_type":0,"name":"建筑大学","id":672753,"area_id":672753,"region":"历城区","status":1,"longitude":117.191719},{"city":"济南","org_id":317,"admin_id":235,"latitude":36.677672,"serve_type":0,"name":"山东大学中心校区","id":672755,"area_id":672755,"region":"历城区","status":1,"longitude":117.066696},{"city":"济南","org_id":319,"admin_id":235,"latitude":36.69304,"serve_type":0,"name":"山东大学洪家楼校区","id":672757,"area_id":672757,"region":"历城区","status":1,"longitude":117.075182},{"city":"济南","org_id":330,"admin_id":235,"latitude":36.646594,"serve_type":0,"name":"山东城市建设职业学院","id":672772,"area_id":672772,"region":"历城区","status":1,"longitude":117.283933},{"city":"济南","org_id":331,"admin_id":235,"latitude":36.641446,"serve_type":0,"name":"山东商业职业技术学院","id":672773,"area_id":672773,"region":"历城区","status":1,"longitude":117.276295},{"city":"济南","org_id":331,"admin_id":235,"latitude":36.641041,"serve_type":0,"name":"济南电子机械工程学校","id":672774,"area_id":672774,"region":"历城区","status":1,"longitude":117.26359}],"name":"历城区","status":1},{"places":[{"city":"济南","org_id":316,"admin_id":235,"latitude":36.619508,"serve_type":0,"name":"济南大学西校区","id":672754,"area_id":672754,"region":"市中区","status":1,"longitude":116.979993},{"city":"济南","org_id":318,"admin_id":235,"latitude":36.631137,"serve_type":0,"name":"财经大学舜耕校区","id":672756,"area_id":672756,"region":"市中区","status":1,"longitude":117.02658},{"city":"济南","org_id":320,"admin_id":235,"latitude":36.6054,"serve_type":0,"name":"山东大学兴隆山校区","id":672758,"area_id":672758,"region":"市中区","status":1,"longitude":117.056842},{"city":"济南","org_id":327,"admin_id":235,"latitude":36.636885,"serve_type":0,"name":"济南大学(东校区)","id":672767,"area_id":672767,"region":"市中区","status":1,"longitude":117.024696}],"name":"市中区","status":1},{"places":[{"city":"济南","org_id":322,"admin_id":235,"latitude":36.565423,"serve_type":0,"name":"济南长清区齐鲁工业大学","id":672760,"area_id":672760,"region":"长清区","status":1,"longitude":116.81777},{"city":"济南","org_id":323,"admin_id":235,"latitude":36.561539,"serve_type":0,"name":"济南市长清区女子学院","id":672761,"area_id":672761,"region":"长清区","status":1,"longitude":116.830868},{"city":"济南","org_id":324,"admin_id":235,"latitude":36.558843,"serve_type":0,"name":"山东工艺美术学院","id":672762,"area_id":672762,"region":"长清区","status":1,"longitude":116.842861},{"city":"济南","org_id":324,"admin_id":235,"latitude":36.553581,"serve_type":0,"name":"山东师范大学","id":672763,"area_id":672763,"region":"长清区","status":1,"longitude":116.840815},{"city":"济南","org_id":325,"admin_id":235,"latitude":36.54318,"serve_type":0,"name":"山东交通学院","id":672764,"area_id":672764,"region":"长清区","status":1,"longitude":116.803805},{"city":"济南","org_id":325,"admin_id":235,"latitude":36.537424,"serve_type":0,"name":"管理学院","id":672765,"area_id":672765,"region":"长清区","status":1,"longitude":116.79331},{"city":"济南","org_id":326,"admin_id":235,"latitude":36.565213,"serve_type":0,"name":"山东中医药大学长清校区","id":672766,"area_id":672766,"region":"长清区","status":1,"longitude":116.808025}],"name":"长清区","status":1}],"id":17},{"name":"淮安","districts":[{"places":[{"city":"淮安","org_id":264,"admin_id":236,"latitude":33.647564,"serve_type":0,"name":"淮阴师范大学","id":672681,"area_id":672681,"region":"淮阴区","status":1,"longitude":119.013622}],"name":"淮阴区","status":1},{"places":[{"city":"淮安","org_id":261,"admin_id":236,"latitude":33.609996,"serve_type":0,"name":"淮阴工学院","id":672676,"area_id":672676,"region":"清河区","status":1,"longitude":119.014844}],"name":"清河区","status":1},{"places":[{"city":"淮安","org_id":262,"admin_id":236,"latitude":33.556619,"serve_type":0,"name":"江苏财经职业技术学院","id":672677,"area_id":672677,"region":"清浦区","status":1,"longitude":119.066259},{"city":"淮安","org_id":262,"admin_id":236,"latitude":33.606509,"serve_type":0,"name":"淮安信息职业技术学院","id":672678,"area_id":672678,"region":"清浦区","status":1,"longitude":119.030186},{"city":"淮安","org_id":263,"admin_id":236,"latitude":33.546382,"serve_type":0,"name":"南京林业大学南方学院","id":672679,"area_id":672679,"region":"清浦区","status":1,"longitude":119.041183},{"city":"淮安","org_id":263,"admin_id":236,"latitude":33.55276,"serve_type":0,"name":"江苏食品职业技术学院","id":672680,"area_id":672680,"region":"清浦区","status":1,"longitude":119.053049}],"name":"清浦区","status":1}],"id":18},{"name":"盐城","districts":[{"places":[{"city":"盐城","org_id":281,"admin_id":236,"latitude":33.408056,"serve_type":0,"name":"盐城工学院北校区（老校区）","id":672707,"area_id":672707,"region":"亭湖区","status":1,"longitude":120.182473},{"city":"盐城","org_id":283,"admin_id":236,"latitude":33.38915,"serve_type":0,"name":"盐城工学院南校区（新校区）","id":672714,"area_id":672714,"region":"亭湖区","status":1,"longitude":120.207379},{"city":"盐城","org_id":284,"admin_id":236,"latitude":33.383596,"serve_type":0,"name":"盐城师范学院新长校区","id":672715,"area_id":672715,"region":"亭湖区","status":1,"longitude":120.211789}],"name":"亭湖区","status":1},{"places":[{"city":"盐城","org_id":282,"admin_id":236,"latitude":33.327023,"serve_type":0,"name":"盐城工业职业技术学院","id":672710,"area_id":672710,"region":"盐都区","status":1,"longitude":120.181649},{"city":"盐城","org_id":282,"admin_id":236,"latitude":33.326133,"serve_type":0,"name":"盐城机电高等职业学院","id":672712,"area_id":672712,"region":"盐都区","status":1,"longitude":120.172498},{"city":"盐城","org_id":282,"admin_id":236,"latitude":33.317995,"serve_type":0,"name":"盐城交通技师学院","id":672713,"area_id":672713,"region":"盐都区","status":1,"longitude":120.177247}],"name":"盐都区","status":1}],"id":19},{"name":"苏州","districts":[{"places":[{"city":"苏州","org_id":100,"admin_id":94,"latitude":31.255356,"serve_type":0,"name":"苏州科技学院石湖校区","id":660017,"area_id":660017,"region":"吴中区","status":1,"longitude":120.583218},{"city":"苏州","org_id":100,"admin_id":94,"latitude":31.256977,"serve_type":0,"name":"苏州经贸职业技术学院","id":660018,"area_id":660018,"region":"吴中区","status":1,"longitude":120.574407},{"city":"苏州","org_id":100,"admin_id":94,"latitude":31.26072,"serve_type":0,"name":"苏州技师学院","id":660019,"area_id":660019,"region":"吴中区","status":1,"longitude":120.57759},{"city":"苏州","org_id":102,"admin_id":94,"latitude":31.223971,"serve_type":0,"name":"苏州大学文正学院","id":660023,"area_id":660023,"region":"吴中区","status":1,"longitude":120.592037},{"city":"苏州","org_id":102,"admin_id":94,"latitude":31.226936,"serve_type":0,"name":"苏州工业职业技术学院","id":660024,"area_id":660024,"region":"吴中区","status":1,"longitude":120.596934},{"city":"苏州","org_id":102,"admin_id":94,"latitude":31.320924,"serve_type":0,"name":"苏州旅游与财经职业技术学院","id":660025,"area_id":660025,"region":"吴中区","status":1,"longitude":120.603941},{"city":"苏州","org_id":102,"admin_id":94,"latitude":31.236863,"serve_type":0,"name":"苏州工艺美术职业技术学院","id":670147,"area_id":670147,"region":"吴中区","status":1,"longitude":120.592948},{"city":"苏州","org_id":102,"admin_id":94,"latitude":31.230557,"serve_type":0,"name":"苏州市职业大学","id":671255,"area_id":671255,"region":"吴中区","status":1,"longitude":120.602467}],"name":"吴中区","status":1},{"places":[{"city":"苏州","org_id":97,"admin_id":94,"latitude":31.309764,"serve_type":0,"name":"苏州大学本部校区","id":660016,"area_id":660016,"region":"姑苏区","status":1,"longitude":120.644503}],"name":"姑苏区","status":1},{"places":[{"city":"苏州","org_id":105,"admin_id":94,"latitude":31.278660,"serve_type":0,"name":"苏州大学独墅湖校区","id":660028,"area_id":660028,"region":"工业园区","status":1,"longitude":120.737121},{"city":"苏州","org_id":105,"admin_id":94,"latitude":31.275768,"serve_type":0,"name":"文荟学生公寓","id":660029,"area_id":660029,"region":"工业园区","status":1,"longitude":120.756594},{"city":"苏州","org_id":105,"admin_id":94,"latitude":31.282834,"serve_type":0,"name":"文星学生公寓","id":663394,"area_id":663394,"region":"工业园区","status":1,"longitude":120.749511},{"city":"苏州","org_id":105,"admin_id":94,"latitude":31.27123,"serve_type":0,"name":"文萃学生公寓","id":667481,"area_id":667481,"region":"工业园区","status":1,"longitude":120.754505}],"name":"工业园区","status":1},{"places":[{"city":"苏州","org_id":225,"admin_id":94,"latitude":39.93242,"serve_type":0,"name":"苏州","id":672656,"area_id":672656,"region":"相城区","status":1,"longitude":116.504879}],"name":"相城区","status":1},{"places":[{"city":"苏州","org_id":98,"admin_id":94,"latitude":31.305314,"serve_type":0,"name":"苏州科技学院江枫校区","id":660772,"area_id":660772,"region":"高新区","status":1,"longitude":120.564448}],"name":"高新区","status":1}],"id":20},{"name":"西安","districts":[{"places":[{"city":"西安","org_id":358,"admin_id":233,"latitude":34.309479,"serve_type":0,"name":"陕西服装工程学院","id":672799,"area_id":672799,"region":"咸新区","status":1,"longitude":108.725203},{"city":"西安","org_id":358,"admin_id":233,"latitude":34.306445,"serve_type":0,"name":"陕西国际商贸学院","id":672800,"area_id":672800,"region":"咸新区","status":1,"longitude":108.723562},{"city":"西安","org_id":358,"admin_id":233,"latitude":34.309255,"serve_type":0,"name":"陕西科技大学镐京学院","id":672801,"area_id":672801,"region":"咸新区","status":1,"longitude":108.731376}],"name":"咸新区","status":1},{"places":[{"city":"西安","org_id":337,"admin_id":233,"latitude":34.382993,"serve_type":0,"name":"陕西科技大学西安校区","id":672781,"area_id":672781,"region":"未央区","status":1,"longitude":108.981793}],"name":"未央区","status":1},{"places":[{"city":"西安","org_id":344,"admin_id":233,"latitude":34.366822,"serve_type":0,"name":"咸阳师范学院","id":672787,"area_id":672787,"region":"渭城区","status":1,"longitude":108.734502}],"name":"渭城区","status":1},{"places":[{"city":"西安","org_id":338,"admin_id":233,"latitude":34.253745,"serve_type":0,"name":"西安交通大学（兴庆校区）","id":672782,"area_id":672782,"region":"碑林区","status":1,"longitude":108.990522},{"city":"西安","org_id":339,"admin_id":233,"latitude":34.259757,"serve_type":0,"name":"西安理工大学（金花校区）","id":672783,"area_id":672783,"region":"碑林区","status":1,"longitude":109.00278},{"city":"西安","org_id":342,"admin_id":233,"latitude":34.249903,"serve_type":0,"name":"西北工业大学友谊路校区","id":672785,"area_id":672785,"region":"碑林区","status":1,"longitude":108.922688},{"city":"西安","org_id":361,"admin_id":233,"latitude":34.253588,"serve_type":0,"name":"西北大学太白校区","id":672803,"area_id":672803,"region":"碑林区","status":1,"longitude":108.934224}],"name":"碑林区","status":1},{"places":[{"city":"西安","org_id":345,"admin_id":233,"latitude":34.13176,"serve_type":0,"name":"西安电子科技大学长安校区","id":672788,"area_id":672788,"region":"长安区","status":1,"longitude":108.841764},{"city":"西安","org_id":346,"admin_id":233,"latitude":34.143345,"serve_type":0,"name":"西安外国语大学长安校区","id":672789,"area_id":672789,"region":"长安区","status":1,"longitude":108.881408},{"city":"西安","org_id":347,"admin_id":233,"latitude":34.151688,"serve_type":0,"name":"西北大学南校区（长安校区）","id":672790,"area_id":672790,"region":"长安区","status":1,"longitude":108.882053},{"city":"西安","org_id":347,"admin_id":233,"latitude":34.171336,"serve_type":0,"name":"陕西工商职业学院","id":672791,"area_id":672791,"region":"长安区","status":1,"longitude":108.877326},{"city":"西安","org_id":349,"admin_id":233,"latitude":33.984717,"serve_type":0,"name":"西安高新科技技术学院","id":672792,"area_id":672792,"region":"长安区","status":1,"longitude":108.710855},{"city":"西安","org_id":353,"admin_id":233,"latitude":34.159134,"serve_type":0,"name":"陕西师范大学长安校区","id":672794,"area_id":672794,"region":"长安区","status":1,"longitude":108.902888},{"city":"西安","org_id":354,"admin_id":233,"latitude":34.134225,"serve_type":0,"name":"陕西学前师范学院","id":672795,"area_id":672795,"region":"长安区","status":1,"longitude":108.941503},{"city":"西安","org_id":355,"admin_id":233,"latitude":34.039382,"serve_type":0,"name":"西北工业大学长安校区","id":672796,"area_id":672796,"region":"长安区","status":1,"longitude":108.773115},{"city":"西安","org_id":356,"admin_id":233,"latitude":34.159336,"serve_type":0,"name":"西北政法大学长安校区","id":672797,"area_id":672797,"region":"长安区","status":1,"longitude":108.9229},{"city":"西安","org_id":359,"admin_id":233,"latitude":34.122137,"serve_type":0,"name":"西安财经学院长安校区","id":672802,"area_id":672802,"region":"长安区","status":1,"longitude":108.940695}],"name":"长安区","status":1},{"places":[{"city":"西安","org_id":341,"admin_id":233,"latitude":34.236661,"serve_type":0,"name":"西安外事学院","id":672784,"area_id":672784,"region":"雁塔区","status":1,"longitude":108.876087},{"city":"西安","org_id":343,"admin_id":233,"latitude":34.235079,"serve_type":0,"name":"西安音乐学院","id":672786,"area_id":672786,"region":"雁塔区","status":1,"longitude":108.950421},{"city":"西安","org_id":352,"admin_id":233,"latitude":34.219491,"serve_type":0,"name":"西安文理学院","id":672793,"area_id":672793,"region":"雁塔区","status":1,"longitude":108.910833},{"city":"西安","org_id":357,"admin_id":233,"latitude":34.209535,"serve_type":0,"name":"陕西师范大学雁塔校区","id":672798,"area_id":672798,"region":"雁塔区","status":1,"longitude":108.956784}],"name":"雁塔区","status":1}],"id":21},{"name":"郑州","districts":[{"places":[{"city":"郑州","org_id":254,"admin_id":234,"latitude":34.822975,"serve_type":0,"name":"郑州大学新校区","id":672665,"area_id":672665,"region":"高新区","status":1,"longitude":113.542962}],"name":"高新区","status":1}],"id":22},{"name":"重庆","districts":[{"places":[{"city":"重庆","org_id":246,"admin_id":232,"latitude":29.512589,"serve_type":0,"name":"重庆工商大学","id":672703,"area_id":672703,"region":"南岸区","status":1,"longitude":106.580958},{"city":"重庆","org_id":247,"admin_id":232,"latitude":29.49622,"serve_type":0,"name":"重庆交通大学","id":672704,"area_id":672704,"region":"南岸区","status":1,"longitude":106.578179},{"city":"重庆","org_id":249,"admin_id":232,"latitude":29.516793,"serve_type":0,"name":"重庆第二师范学院","id":672706,"area_id":672706,"region":"南岸区","status":1,"longitude":106.583807}],"name":"南岸区","status":1},{"places":[{"city":"重庆","org_id":248,"admin_id":232,"latitude":29.459629,"serve_type":0,"name":"重庆理工大学","id":672705,"area_id":672705,"region":"巴南区","status":1,"longitude":106.535999},{"city":"重庆","org_id":251,"admin_id":232,"latitude":29.426666,"serve_type":0,"name":"重庆工程学院","id":672709,"area_id":672709,"region":"巴南区","status":1,"longitude":106.600393}],"name":"巴南区","status":1},{"places":[{"city":"重庆","org_id":250,"admin_id":232,"latitude":29.356254,"serve_type":0,"name":"重庆文理学院","id":672708,"area_id":672708,"region":"永川区","status":1,"longitude":105.945121},{"city":"重庆","org_id":253,"admin_id":232,"latitude":29.371355,"serve_type":0,"name":"重庆水利水电职业技术学院","id":672724,"area_id":672724,"region":"永川区","status":1,"longitude":105.939449}],"name":"永川区","status":1},{"places":[{"city":"重庆","org_id":252,"admin_id":232,"latitude":29.380774,"serve_type":0,"name":"重庆航空职业学院","id":672711,"area_id":672711,"region":"江北区","status":1,"longitude":105.882803}],"name":"江北区","status":1},{"places":[{"city":"重庆","org_id":237,"admin_id":232,"latitude":29.63213,"serve_type":0,"name":"重庆医药高等专业学校","id":672657,"area_id":672657,"region":"沙坪坝区","status":1,"longitude":106.319494},{"city":"重庆","org_id":238,"admin_id":232,"latitude":29.622766,"serve_type":0,"name":"重庆电子工程职业学院","id":672658,"area_id":672658,"region":"沙坪坝区","status":1,"longitude":106.330745},{"city":"重庆","org_id":239,"admin_id":232,"latitude":29.618645,"serve_type":0,"name":"重庆师范大学大学城校区","id":672659,"area_id":672659,"region":"沙坪坝区","status":1,"longitude":106.309804},{"city":"重庆","org_id":240,"admin_id":232,"latitude":29.599757,"serve_type":0,"name":"重庆大学大学城校区","id":672660,"area_id":672660,"region":"沙坪坝区","status":1,"longitude":106.305804},{"city":"重庆","org_id":240,"admin_id":232,"latitude":29.60709,"serve_type":0,"name":"四川美术学院","id":672804,"area_id":672804,"region":"沙坪坝区","status":1,"longitude":106.302949},{"city":"重庆","org_id":241,"admin_id":232,"latitude":29.600621,"serve_type":0,"name":"重庆科技学院虎溪校区","id":672661,"area_id":672661,"region":"沙坪坝区","status":1,"longitude":106.329309},{"city":"重庆","org_id":242,"admin_id":232,"latitude":29.572749,"serve_type":0,"name":"重庆大学(A区B区)","id":672662,"area_id":672662,"region":"沙坪坝区","status":1,"longitude":106.47011},{"city":"重庆","org_id":243,"admin_id":232,"latitude":29.578243,"serve_type":0,"name":"四川外国语大学","id":672663,"area_id":672663,"region":"沙坪坝区","status":1,"longitude":106.442671}],"name":"沙坪坝区","status":1},{"places":[{"city":"重庆","org_id":245,"admin_id":232,"latitude":29.539027,"serve_type":0,"name":"重庆医科大学","id":672702,"area_id":672702,"region":"渝中区","status":1,"longitude":106.515581}],"name":"渝中区","status":1},{"places":[{"city":"重庆","org_id":244,"admin_id":232,"latitude":29.667418,"serve_type":0,"name":"西南政法大学渝北校区","id":672664,"area_id":672664,"region":"渝北区","status":1,"longitude":106.599539}],"name":"渝北区","status":1}],"id":23},{"name":"镇江","districts":[{"places":[{"city":"镇江","org_id":289,"admin_id":11,"latitude":32.200102,"serve_type":0,"name":"江苏大学本部","id":672721,"area_id":672721,"region":"京口区","status":1,"longitude":119.526632},{"city":"镇江","org_id":289,"admin_id":11,"latitude":32.21136,"serve_type":0,"name":"江苏大学京江学院","id":672722,"area_id":672722,"region":"京口区","status":1,"longitude":119.515543}],"name":"京口区","status":1},{"places":[{"city":"镇江","org_id":290,"admin_id":11,"latitude":31.965809,"serve_type":0,"name":"江苏农林职业技术学院","id":672723,"area_id":672723,"region":"句容市","status":1,"longitude":119.177946}],"name":"句容市","status":1},{"places":[{"city":"镇江","org_id":286,"admin_id":11,"latitude":32.188277,"serve_type":0,"name":"江苏科技大学西校区","id":672717,"area_id":672717,"region":"润州区","status":1,"longitude":119.396175},{"city":"镇江","org_id":287,"admin_id":11,"latitude":32.188116,"serve_type":0,"name":"江苏科技大学南校区","id":672718,"area_id":672718,"region":"润州区","status":1,"longitude":119.435733},{"city":"镇江","org_id":288,"admin_id":11,"latitude":32.203142,"serve_type":0,"name":"江苏科技大学东校区","id":672719,"area_id":672719,"region":"润州区","status":1,"longitude":119.473527},{"city":"镇江","org_id":288,"admin_id":11,"latitude":32.20066,"serve_type":0,"name":"镇江市高等专科学校","id":672720,"area_id":672720,"region":"润州区","status":1,"longitude":119.481038}],"name":"润州区","status":1}],"id":24},{"name":"长沙","districts":[{"places":[{"city":"长沙","org_id":111,"admin_id":95,"latitude":28.138946,"serve_type":0,"name":"中南林业科技大学","id":660038,"area_id":660038,"region":"天心区","status":1,"longitude":113.004217},{"city":"长沙","org_id":113,"admin_id":95,"latitude":28.143867,"serve_type":0,"name":"中南大学铁道学院","id":660040,"area_id":660040,"region":"天心区","status":1,"longitude":112.997423},{"city":"长沙","org_id":119,"admin_id":95,"latitude":28.160835,"serve_type":0,"name":"长沙理工大学金盆岭校区","id":660048,"area_id":660048,"region":"天心区","status":1,"longitude":112.985391}],"name":"天心区","status":1},{"places":[{"city":"长沙","org_id":110,"admin_id":95,"latitude":28.135036,"serve_type":0,"name":"湖南中医药大学","id":660037,"area_id":660037,"region":"岳麓区","status":1,"longitude":112.90085},{"city":"长沙","org_id":114,"admin_id":95,"latitude":28.206716,"serve_type":0,"name":"湖南涉外经济学院","id":660041,"area_id":660041,"region":"岳麓区","status":1,"longitude":112.882166},{"city":"长沙","org_id":116,"admin_id":95,"latitude":28.185044,"serve_type":0,"name":"湖南大学","id":660043,"area_id":660043,"region":"岳麓区","status":1,"longitude":112.950477},{"city":"长沙","org_id":116,"admin_id":95,"latitude":28.191165,"serve_type":0,"name":"湖南师范大学","id":660044,"area_id":660044,"region":"岳麓区","status":1,"longitude":112.956569},{"city":"长沙","org_id":117,"admin_id":95,"latitude":28.165898,"serve_type":0,"name":"中南大学南校区","id":660045,"area_id":660045,"region":"岳麓区","status":1,"longitude":112.942655},{"city":"长沙","org_id":120,"admin_id":95,"latitude":28.240668,"serve_type":0,"name":"湖南商务职业技术学院","id":660047,"area_id":660047,"region":"岳麓区","status":1,"longitude":112.906466},{"city":"长沙","org_id":151,"admin_id":95,"latitude":28.174281,"serve_type":0,"name":"中南本部（树达学院）","id":665419,"area_id":665419,"region":"岳麓区","status":1,"longitude":112.933071},{"city":"长沙","org_id":152,"admin_id":95,"latitude":28.226872,"serve_type":0,"name":"湖南商学院","id":665420,"area_id":665420,"region":"岳麓区","status":1,"longitude":112.925822},{"city":"长沙","org_id":181,"admin_id":95,"latitude":28.210759,"serve_type":0,"name":"湖南财政经济学院","id":668030,"area_id":668030,"region":"岳麓区","status":1,"longitude":112.928402}],"name":"岳麓区","status":1},{"places":[{"city":"长沙","org_id":153,"admin_id":95,"latitude":28.252959,"serve_type":0,"name":"长沙大学","id":665421,"area_id":665421,"region":"开福区","status":1,"longitude":113.03279}],"name":"开福区","status":1},{"places":[{"city":"长沙","org_id":118,"admin_id":95,"latitude":28.303141,"serve_type":0,"name":"长沙医学院","id":660046,"area_id":660046,"region":"望城区","status":1,"longitude":112.880994},{"city":"长沙","org_id":178,"admin_id":95,"latitude":28.311185,"serve_type":0,"name":"北津学院","id":668016,"area_id":668016,"region":"望城区","status":1,"longitude":112.880885}],"name":"望城区","status":1},{"places":[{"city":"长沙","org_id":115,"admin_id":95,"latitude":28.189795,"serve_type":0,"name":"湖南农业大学","id":660042,"area_id":660042,"region":"芙蓉区","status":1,"longitude":113.090373},{"city":"长沙","org_id":115,"admin_id":95,"latitude":28.189795,"serve_type":0,"name":"湖南生物与机电工程职业技术学院","id":661252,"area_id":661252,"region":"芙蓉区","status":1,"longitude":113.090373}],"name":"芙蓉区","status":1},{"places":[{"city":"长沙","org_id":285,"admin_id":95,"latitude":28.281695,"serve_type":0,"name":"湖南工程职业技术学院","id":672716,"area_id":672716,"region":"长沙县","status":1,"longitude":113.07524}],"name":"长沙县","status":1},{"places":[{"city":"长沙","org_id":112,"admin_id":95,"latitude":28.145046,"serve_type":0,"name":"长沙民政职业技术学院","id":660039,"area_id":660039,"region":"雨花区","status":1,"longitude":113.018900},{"city":"长沙","org_id":182,"admin_id":95,"latitude":28.07346,"serve_type":0,"name":"长沙理工大学云塘校区","id":668197,"area_id":668197,"region":"雨花区","status":1,"longitude":113.015901}],"name":"雨花区","status":1}],"id":25}],"rescode":200}